City_ID,City,Country,Lat,Lng,Max Temp,Humidity,Cloudiness,Wind Speed,Current Description,Date
0,Fortuna,US,40.6,-124.16,61.0,72,1,8.05,clear sky,2020-10-31 23:24:11
1,Busselton,AU,-33.65,115.33,59.0,79,100,1.97,light rain,2020-10-31 23:23:58
2,Brookhaven,US,31.58,-90.44,59.0,87,0,2.17,clear sky,2020-10-31 23:33:08
3,Albany,US,42.6,-73.97,36.0,83,0,5.41,clear sky,2020-10-31 23:21:30
4,Ushuaia,AR,-54.8,-68.3,48.2,93,90,5.82,light intensity drizzle,2020-10-31 23:33:08
5,Clyde River,CA,70.47,-68.59,14.0,92,75,16.11,light snow,2020-10-31 23:23:58
6,Butaritari,KI,3.07,172.79,81.63,75,99,15.26,overcast clouds,2020-10-31 23:24:08
7,Chokurdakh,RU,70.63,147.92,-8.9,91,85,7.85,overcast clouds,2020-10-31 23:33:09
8,Geraldton,AU,-28.77,114.6,64.4,88,90,17.22,shower rain,2020-10-31 23:33:09
9,Toro,CO,4.61,-76.08,71.6,78,40,2.24,shower rain,2020-10-31 23:33:09
10,Castro,BR,-24.79,-50.01,52.9,92,77,7.25,broken clouds,2020-10-31 23:33:09
11,Severo-Kurilsk,RU,50.68,156.12,43.54,76,74,16.78,broken clouds,2020-10-31 23:33:09
12,Yumen,CN,40.28,97.2,35.94,68,49,11.03,scattered clouds,2020-10-31 23:33:09
13,Taree,AU,-31.9,152.47,71.6,46,2,7.47,clear sky,2020-10-31 23:33:09
14,Valparaiso,CL,-33.04,-71.63,55.99,100,90,4.7,fog,2020-10-31 23:32:00
15,Tornio,FI,65.85,24.15,35.6,100,100,9.17,overcast clouds,2020-10-31 23:33:10
16,Carutapera,BR,-1.2,-46.02,78.13,81,25,6.58,scattered clouds,2020-10-31 23:32:00
17,Lagoa,PT,39.05,-27.98,68.38,93,64,24.2,broken clouds,2020-10-31 23:33:10
18,Novobirilyussy,RU,56.95,90.67,32.4,98,99,7.58,overcast clouds,2020-10-31 23:33:10
19,Comodoro Rivadavia,AR,-45.87,-67.5,64.4,59,0,4.7,clear sky,2020-10-31 23:29:45
20,Rikitea,PF,-23.12,-134.97,75.96,66,0,6.31,clear sky,2020-10-31 23:33:11
21,Ampanihy,MG,-24.7,44.75,67.5,73,0,5.61,clear sky,2020-10-31 23:33:11
22,Manjacaze,MZ,-24.71,33.88,69.3,84,50,6.17,scattered clouds,2020-10-31 23:24:18
23,Nouadhibou,MR,20.93,-17.03,68.0,82,40,12.75,scattered clouds,2020-10-31 23:24:21
24,Mazsalaca,LV,57.86,25.05,39.99,98,4,1.01,clear sky,2020-10-31 23:33:11
25,Tasiilaq,GL,65.61,-37.64,32.0,92,100,18.34,overcast clouds,2020-10-31 23:20:08
26,Barrow,US,71.29,-156.79,24.8,73,90,12.75,light snow,2020-10-31 23:21:17
27,Bluff,NZ,-46.6,168.33,55.0,76,96,15.99,overcast clouds,2020-10-31 23:21:48
28,Natal,BR,-5.79,-35.21,78.8,83,20,9.17,few clouds,2020-10-31 23:24:34
29,Catamarca,AR,-28.47,-65.79,68.22,32,3,9.82,clear sky,2020-10-31 23:33:12
30,Ixtapa,MX,20.7,-105.2,84.2,74,75,8.05,broken clouds,2020-10-31 23:33:12
31,Hilo,US,19.73,-155.09,86.0,62,40,10.29,scattered clouds,2020-10-31 23:33:12
32,San Quintin,MX,30.48,-115.95,71.94,54,47,8.93,scattered clouds,2020-10-31 23:33:12
33,Hobart,AU,-42.88,147.33,64.0,71,75,13.87,broken clouds,2020-10-31 23:21:04
34,Bambous Virieux,MU,-20.34,57.76,66.2,82,40,8.05,shower rain,2020-10-31 23:23:59
35,Bredasdorp,ZA,-34.53,20.04,53.6,87,0,2.24,clear sky,2020-10-31 23:23:55
36,Hovd,MN,48.01,91.64,25.47,87,0,1.32,clear sky,2020-10-31 23:23:34
37,Campbeltown,GB,55.43,-5.61,48.99,81,98,16.11,overcast clouds,2020-10-31 23:33:13
38,Khatanga,RU,71.97,102.5,-5.78,87,46,9.93,scattered clouds,2020-10-31 23:21:12
39,Chicama,PE,-7.84,-79.15,62.6,82,75,12.75,mist,2020-10-31 23:24:11
40,Yining,CN,29.04,114.56,59.85,91,100,1.52,light rain,2020-10-31 23:24:36
41,Port Alfred,ZA,-33.59,26.89,61.68,81,54,10.67,broken clouds,2020-10-31 23:21:09
42,Butterworth,MY,5.4,100.36,77.0,94,40,8.05,scattered clouds,2020-10-31 23:33:13
43,Pizarro,CO,4.95,-77.37,77.77,88,97,6.76,light rain,2020-10-31 23:33:14
44,Upernavik,GL,72.79,-56.15,16.09,95,95,14.12,overcast clouds,2020-10-31 23:24:01
45,Nikolskoye,RU,59.7,30.79,37.0,89,21,4.47,mist,2020-10-31 23:24:05
46,Petropavlovsk-Kamchatskiy,RU,53.05,158.65,41.0,60,40,4.47,scattered clouds,2020-10-31 23:20:11
47,San Nicolas,PH,18.17,120.6,78.8,69,75,12.75,broken clouds,2020-10-31 23:33:14
48,Dormidontovka,RU,47.77,134.91,47.19,77,90,13.89,overcast clouds,2020-10-31 23:33:14
49,Sisimiut,GL,66.94,-53.67,20.71,96,100,7.85,light snow,2020-10-31 23:33:14
50,Tautira,PF,-17.73,-149.15,86.0,55,40,16.11,scattered clouds,2020-10-31 23:33:15
51,Pavlogradka,RU,54.2,73.56,35.44,83,28,10.11,scattered clouds,2020-10-31 23:33:15
52,High Level,CA,58.52,-117.14,28.4,86,40,6.93,scattered clouds,2020-10-31 23:33:15
53,Komsomolskiy,UZ,40.43,71.72,41.0,35,43,6.93,scattered clouds,2020-10-31 23:24:11
54,Kodiak,US,57.79,-152.41,37.4,40,1,14.99,clear sky,2020-10-31 23:24:08
55,Grindavik,IS,63.84,-22.43,37.4,93,75,5.82,broken clouds,2020-10-31 23:22:34
56,Port Elizabeth,ZA,-33.92,25.57,64.4,82,0,5.82,clear sky,2020-10-31 23:23:56
57,Saint-Philippe,RE,-21.36,55.77,66.2,59,0,8.05,clear sky,2020-10-31 23:33:16
58,Xam Nua,LA,20.42,104.04,64.09,90,72,1.36,broken clouds,2020-10-31 23:33:16
59,Kaitangata,NZ,-46.28,169.85,61.0,50,78,11.99,broken clouds,2020-10-31 23:21:38
60,Margate,GB,51.38,1.39,52.0,82,83,3.0,broken clouds,2020-10-31 23:30:14
61,Burnie,AU,-41.07,145.92,61.0,60,41,4.0,scattered clouds,2020-10-31 23:33:16
62,Uruzgan,AF,32.83,66.0,33.4,78,0,4.25,clear sky,2020-10-31 23:33:17
63,Vaini,TO,-21.2,-175.2,77.0,83,75,11.41,broken clouds,2020-10-31 23:21:07
64,Hobyo,SO,5.35,48.53,80.78,78,100,5.06,overcast clouds,2020-10-31 23:24:34
65,Santa Ana,US,33.75,-117.87,82.99,49,75,4.7,broken clouds,2020-10-31 23:33:17
66,Punta Arenas,CL,-53.15,-70.92,57.2,62,75,11.41,broken clouds,2020-10-31 23:21:07
67,Cabo San Lucas,MX,22.89,-109.91,82.99,69,20,5.82,few clouds,2020-10-31 23:23:01
68,Pemangkat,ID,1.17,108.97,79.03,84,100,3.18,overcast clouds,2020-10-31 23:33:18
69,Mar Del Plata,AR,-38.0,-57.56,61.0,67,0,6.93,clear sky,2020-10-31 23:19:46
70,Souillac,MU,-20.52,57.52,66.2,82,40,8.05,shower rain,2020-10-31 23:24:10
71,Srandakan,ID,-7.94,110.25,78.98,80,30,5.66,scattered clouds,2020-10-31 23:33:18
72,Chuy,UY,-33.7,-53.46,54.63,83,4,5.39,clear sky,2020-10-31 23:21:39
73,Lumajang,ID,-8.13,113.22,78.19,76,99,3.02,overcast clouds,2020-10-31 23:33:18
74,Tukrah,LY,32.53,20.58,68.52,70,45,10.38,scattered clouds,2020-10-31 23:33:18
75,Westport,US,41.14,-73.36,42.8,56,1,6.93,clear sky,2020-10-31 23:25:37
76,Parry Sound,CA,45.35,-80.03,41.0,60,40,14.14,scattered clouds,2020-10-31 23:28:29
77,Naples,IT,40.83,14.25,61.0,93,20,1.12,mist,2020-10-31 23:29:08
78,Mataura,NZ,-46.19,168.86,55.0,76,40,15.99,scattered clouds,2020-10-31 23:24:00
79,Talnakh,RU,69.49,88.4,19.4,92,75,29.08,light shower snow,2020-10-31 23:21:47
80,Hede,CN,33.77,120.25,61.39,64,96,3.87,overcast clouds,2020-10-31 23:32:11
81,Yulara,AU,-25.24,130.99,78.8,19,0,14.99,clear sky,2020-10-31 23:24:12
82,Taltal,CL,-25.4,-70.48,61.09,63,53,2.86,broken clouds,2020-10-31 23:24:02
83,Ilulissat,GL,69.22,-51.1,21.2,73,100,10.29,light shower snow,2020-10-31 23:24:01
84,Hermanus,ZA,-34.42,19.23,57.0,83,0,5.99,clear sky,2020-10-31 23:20:06
85,Meadow Lake,US,34.8,-106.54,69.8,15,40,10.29,scattered clouds,2020-10-31 23:24:13
86,Bengkulu,ID,-3.8,102.27,76.66,86,100,4.45,overcast clouds,2020-10-31 23:32:54
87,Thompson,CA,55.74,-97.86,19.4,67,75,9.17,broken clouds,2020-10-31 23:24:01
88,Rundu,NA,-17.93,19.77,72.84,26,4,2.73,clear sky,2020-10-31 23:33:20
89,Paraibano,BR,-6.43,-43.98,76.66,73,93,2.57,overcast clouds,2020-10-31 23:33:21
90,Jamestown,US,42.1,-79.24,37.4,69,1,8.05,clear sky,2020-10-31 23:20:06
91,Lebu,CL,-37.62,-73.65,54.82,82,0,9.73,clear sky,2020-10-31 23:24:24
92,Kapaa,US,22.08,-159.32,82.99,65,90,13.87,overcast clouds,2020-10-31 23:21:28
93,Faanui,PF,-16.48,-151.75,79.39,73,1,18.41,clear sky,2020-10-31 23:21:35
94,Lompoc,US,34.64,-120.46,78.01,36,1,10.29,clear sky,2020-10-31 23:24:49
95,Tuktoyaktuk,CA,69.45,-133.04,-2.2,84,75,4.7,broken clouds,2020-10-31 23:21:24
96,Dunedin,NZ,-45.87,170.5,57.0,73,23,13.0,few clouds,2020-10-31 23:33:21
97,Mabai,CN,23.01,104.45,57.09,100,87,2.24,overcast clouds,2020-10-31 23:33:22
98,New Norfolk,AU,-42.78,147.06,64.0,42,19,1.01,few clouds,2020-10-31 23:19:27
99,Georgetown,MY,5.41,100.34,77.0,94,20,3.36,few clouds,2020-10-31 23:21:02
100,Tura,IN,25.52,90.22,71.1,94,100,1.28,overcast clouds,2020-10-31 23:33:22
101,Arraial Do Cabo,BR,-22.97,-42.03,71.11,82,92,17.96,overcast clouds,2020-10-31 23:33:22
102,Kenora,CA,49.82,-94.43,24.8,79,90,18.34,overcast clouds,2020-10-31 23:33:22
103,Cherskiy,RU,68.75,161.3,10.87,89,96,3.0,overcast clouds,2020-10-31 23:21:36
104,Avera,US,33.19,-82.53,62.6,67,90,6.93,overcast clouds,2020-10-31 23:22:55
105,Yellowknife,CA,62.46,-114.35,21.2,92,90,10.29,light snow,2020-10-31 23:21:30
106,Kamina,CD,-8.74,24.99,63.23,92,7,3.65,clear sky,2020-10-31 23:33:23
107,Saint-Augustin,CA,51.23,-58.65,28.81,79,3,10.54,clear sky,2020-10-31 23:33:23
108,Gualaquiza,EC,-3.4,-78.55,66.04,89,80,1.9,moderate rain,2020-10-31 23:33:23
109,Magadan,RU,59.57,150.8,32.77,96,100,8.25,overcast clouds,2020-10-31 23:33:23
110,Tanete,ID,-3.94,119.78,82.56,72,99,1.79,overcast clouds,2020-10-31 23:33:23
111,Zharkent,KZ,44.16,80.0,35.98,77,0,0.96,clear sky,2020-10-31 23:33:23
112,Gravdal,NO,68.12,13.5,44.87,69,100,17.87,overcast clouds,2020-10-31 23:33:24
113,Filadelfia,US,39.95,-75.16,46.4,49,40,5.82,scattered clouds,2020-10-31 23:20:01
114,Sao Filipe,CV,14.9,-24.5,79.93,66,86,9.33,overcast clouds,2020-10-31 23:24:30
115,East London,ZA,-33.02,27.91,64.74,73,92,11.21,overcast clouds,2020-10-31 23:22:08
116,Forestville,US,38.85,-76.88,48.99,81,90,4.7,overcast clouds,2020-10-31 23:33:25
117,Vytegra,RU,61.01,36.45,31.03,96,0,4.61,clear sky,2020-10-31 23:33:25
118,Dikson,RU,73.51,80.55,17.47,97,100,8.3,light snow,2020-10-31 23:24:05
119,Bulgan,MN,48.81,103.53,22.78,81,18,5.79,few clouds,2020-10-31 23:33:25
120,Sibolga,ID,1.74,98.78,76.35,87,100,1.66,light rain,2020-10-31 23:33:25
121,Labuhan,ID,-6.88,112.21,75.76,90,100,5.61,light rain,2020-10-31 23:24:04
122,Hithadhoo,MV,-0.6,73.08,83.8,69,100,8.84,overcast clouds,2020-10-31 23:23:55
123,Narsaq,GL,60.92,-46.05,24.8,79,98,1.12,overcast clouds,2020-10-31 23:22:00
124,Diffa,NE,13.32,12.61,77.81,27,0,9.73,clear sky,2020-10-31 23:33:26
125,Puerto Ayora,EC,-0.74,-90.35,70.0,90,100,5.01,overcast clouds,2020-10-31 23:24:06
126,Tarko-Sale,RU,64.92,77.78,29.77,99,100,15.75,overcast clouds,2020-10-31 23:33:26
127,Beringovskiy,RU,63.05,179.32,19.81,95,99,11.7,overcast clouds,2020-10-31 23:23:22
128,Egvekinot,RU,66.32,-179.17,14.36,82,1,3.18,clear sky,2020-10-31 23:23:54
129,Storforshei,NO,66.4,14.52,32.0,93,91,8.16,overcast clouds,2020-10-31 23:33:26
130,Deputatskiy,RU,69.3,139.9,-8.63,91,99,5.28,overcast clouds,2020-10-31 23:22:00
131,Miyang,CN,24.4,103.44,61.83,88,90,4.03,overcast clouds,2020-10-31 23:33:27
132,Grand Gaube,MU,-20.01,57.66,66.2,82,40,8.05,shower rain,2020-10-31 23:33:27
133,Lebanon,US,36.21,-86.29,61.0,63,1,3.36,clear sky,2020-10-31 23:24:02
134,San Cristobal,VE,7.77,-72.22,82.4,65,40,8.05,scattered clouds,2020-10-31 23:28:59
135,George,ZA,-33.96,22.46,55.4,82,3,5.82,clear sky,2020-10-31 23:25:18
136,Ambilobe,MG,-13.2,49.05,72.63,61,75,4.5,broken clouds,2020-10-31 23:22:29
137,Lorengau,PG,-2.02,147.27,84.97,70,39,8.28,scattered clouds,2020-10-31 23:24:34
138,Gizo,SB,-8.1,156.84,85.1,67,27,3.58,scattered clouds,2020-10-31 23:33:28
139,Cape Town,ZA,-33.93,18.42,60.01,58,0,11.41,clear sky,2020-10-31 23:33:30
140,Shushenskoye,RU,53.33,91.94,32.0,95,0,4.47,clear sky,2020-10-31 23:33:30
141,Kamariotissa,GR,40.48,25.47,55.4,76,0,7.05,clear sky,2020-10-31 23:33:30
142,Sao Felix Do Xingu,BR,-6.64,-51.99,76.06,80,99,0.45,moderate rain,2020-10-31 23:33:30
143,Longyearbyen,SJ,78.22,15.64,24.8,73,40,12.75,scattered clouds,2020-10-31 23:24:12
144,Kruisfontein,ZA,-34.0,24.73,57.99,91,41,3.56,light rain,2020-10-31 23:24:29
145,Oyo,NG,7.85,3.93,78.8,88,75,6.93,broken clouds,2020-10-31 23:33:30
146,Mahoba,IN,25.28,79.87,67.01,25,16,6.13,few clouds,2020-10-31 23:33:32
147,Faya,SA,18.39,42.45,62.6,33,0,3.36,clear sky,2020-10-31 23:33:32
148,Avarua,CK,-21.21,-159.78,75.2,83,99,11.41,overcast clouds,2020-10-31 23:24:02
149,Oistins,BB,13.07,-59.53,78.8,88,75,4.7,broken clouds,2020-10-31 23:33:32
150,Pokhara,NP,28.23,83.98,68.36,30,72,5.91,broken clouds,2020-10-31 23:33:32
151,Espanola,US,35.99,-106.08,62.01,23,1,3.36,clear sky,2020-10-31 23:30:35
152,Pilot Butte,CA,50.47,-104.42,32.0,84,22,17.22,few clouds,2020-10-31 23:33:32
153,Mackenzie,CA,55.3,-123.17,33.8,88,90,10.29,overcast clouds,2020-10-31 23:25:24
154,Oliveira Do Hospital,PT,40.36,-7.86,57.99,90,86,0.98,overcast clouds,2020-10-31 23:33:33
155,Thinadhoo,MV,0.53,72.93,83.28,73,91,8.46,overcast clouds,2020-10-31 23:33:33
156,Saint-Joseph,RE,-21.37,55.62,66.2,59,0,8.05,clear sky,2020-10-31 23:33:34
157,Kirakira,SB,-10.45,161.92,85.6,68,50,5.44,scattered clouds,2020-10-31 23:24:02
158,Palestina,PS,31.92,35.2,73.0,78,40,2.24,scattered clouds,2020-10-31 23:31:08
159,Kutum,SD,14.2,24.67,73.85,31,59,13.2,broken clouds,2020-10-31 23:33:34
160,Roma,US,43.21,-75.46,37.4,64,1,3.36,clear sky,2020-10-31 23:23:44
161,Campo Grande,BR,-20.44,-54.65,73.4,64,0,9.17,clear sky,2020-10-31 23:33:35
162,Atuona,PF,-9.8,-139.03,78.44,75,11,17.63,few clouds,2020-10-31 23:23:58
163,Namibe,AO,-15.2,12.15,76.77,71,64,2.42,light rain,2020-10-31 23:21:09
164,Long,TH,18.08,99.83,73.4,88,75,1.7,broken clouds,2020-10-31 23:33:35
165,Seoul,KR,37.57,126.98,57.2,87,90,3.36,light rain,2020-10-31 23:33:35
166,Berea,US,41.37,-81.85,45.0,56,1,6.93,clear sky,2020-10-31 23:32:57
167,Naryan-Mar,RU,67.67,53.09,33.67,91,94,13.38,overcast clouds,2020-10-31 23:33:35
168,Victoria,HK,22.29,114.16,72.0,78,94,1.99,overcast clouds,2020-10-31 23:22:29
169,Kalmunai,LK,7.42,81.82,78.01,85,87,7.85,light rain,2020-10-31 23:33:36
170,Nynashamn,SE,58.9,17.95,52.0,72,100,18.5,overcast clouds,2020-10-31 23:33:36
171,Manica,FR,49.0,-1.17,51.8,87,0,6.93,light rain,2020-10-31 23:33:36
172,San Antonio,US,29.42,-98.49,77.0,29,1,5.82,clear sky,2020-10-31 23:28:56
173,Hay River,CA,60.82,-115.8,28.4,79,35,3.36,scattered clouds,2020-10-31 23:25:22
174,Dingle,PH,11.0,122.67,78.21,84,100,3.22,light rain,2020-10-31 23:24:10
175,Carnarvon,AU,-24.87,113.63,71.6,68,90,14.99,overcast clouds,2020-10-31 23:21:05
176,Cabedelo,BR,-6.98,-34.83,78.8,83,20,8.05,few clouds,2020-10-31 23:30:49
177,Plainview,US,40.78,-73.47,43.0,60,90,3.36,overcast clouds,2020-10-31 23:33:25
178,Port Moresby,PG,-9.44,147.18,83.16,73,26,1.9,scattered clouds,2020-10-31 23:23:17
179,Ati,TD,13.22,18.34,84.49,18,20,14.61,few clouds,2020-10-31 23:33:37
180,Tommot,RU,58.96,126.29,-6.79,89,94,1.95,overcast clouds,2020-10-31 23:24:30
181,Luderitz,NA,-26.65,15.16,64.38,47,17,21.43,few clouds,2020-10-31 23:24:25
182,Vestmannaeyjar,IS,63.44,-20.27,42.82,69,5,5.57,clear sky,2020-10-31 23:24:46
183,Chester,US,40.13,-75.87,41.0,85,75,4.43,broken clouds,2020-10-31 23:30:05
184,Port-Gentil,GA,-0.72,8.78,80.6,88,40,9.17,scattered clouds,2020-10-31 23:33:37
185,Nuuk,GL,64.18,-51.72,23.0,85,100,6.93,light snow,2020-10-31 23:29:29
186,Ayagoz,KZ,47.97,80.44,27.64,94,0,5.57,clear sky,2020-10-31 23:33:38
187,Pevek,RU,69.7,170.31,14.05,95,55,12.08,broken clouds,2020-10-31 23:21:24
188,Port Lincoln,AU,-34.73,135.87,58.57,79,3,13.85,clear sky,2020-10-31 23:24:11
189,Touros,BR,-5.2,-35.46,78.8,83,40,6.93,scattered clouds,2020-10-31 23:21:26
190,Muzhi,RU,65.37,64.67,31.98,95,25,14.65,scattered clouds,2020-10-31 23:33:38
191,Mizan Teferi,ET,6.98,35.58,60.91,92,80,2.55,light rain,2020-10-31 23:33:38
192,Guerrero Negro,MX,27.98,-114.06,77.45,38,98,11.74,overcast clouds,2020-10-31 23:25:16
193,Atambua,ID,-9.11,124.89,84.67,50,60,3.13,broken clouds,2020-10-31 23:33:39
194,Le Mars,US,42.79,-96.17,57.0,45,20,13.87,few clouds,2020-10-31 23:33:39
195,Boende,CD,-0.22,20.87,71.04,92,6,2.17,clear sky,2020-10-31 23:33:39
196,Ponta Do Sol,PT,32.67,-17.1,72.0,64,20,10.29,few clouds,2020-10-31 23:24:32
197,Harper,LR,4.38,-7.72,77.67,88,78,7.36,broken clouds,2020-10-31 23:33:39
198,Severo-Yeniseyskiy,RU,60.37,93.04,9.46,94,100,6.11,overcast clouds,2020-10-31 23:33:39
199,Ancud,CL,-41.87,-73.82,62.6,55,0,6.93,clear sky,2020-10-31 23:23:55
200,Terra Santa,BR,-2.1,-56.49,84.61,43,8,2.44,clear sky,2020-10-31 23:33:39
201,Laguna,US,38.42,-121.42,81.0,21,1,3.36,clear sky,2020-10-31 23:24:27
202,Oranjemund,NA,-28.55,16.43,58.48,74,0,9.64,clear sky,2020-10-31 23:33:40
203,Norman Wells,CA,65.28,-126.83,3.2,84,20,3.36,few clouds,2020-10-31 23:23:56
204,Ilinskiy,RU,55.62,38.12,43.0,87,0,8.95,clear sky,2020-10-31 23:33:40
205,Acapulco,MX,16.86,-99.89,86.0,74,75,8.05,broken clouds,2020-10-31 23:22:52
206,Xinzhou,CN,38.41,112.73,42.44,56,58,0.67,broken clouds,2020-10-31 23:33:40
207,Angoche,MZ,-16.23,39.91,76.15,76,98,1.14,overcast clouds,2020-10-31 23:24:32
208,Virginia Beach,US,36.85,-75.98,54.0,62,75,4.7,broken clouds,2020-10-31 23:30:28
209,Gondanglegi,ID,-7.75,112.01,76.53,84,96,5.75,overcast clouds,2020-10-31 23:33:41
210,Dharan,NP,26.81,87.28,68.52,50,23,4.81,few clouds,2020-10-31 23:33:41
211,Nha Trang,VN,12.25,109.18,80.6,94,40,17.22,scattered clouds,2020-10-31 23:33:41
212,Saint George,US,37.1,-113.58,79.0,15,1,1.19,clear sky,2020-10-31 23:22:17
213,Isangel,VU,-19.55,169.27,79.84,71,91,13.96,overcast clouds,2020-10-31 23:22:12
214,Nemuro,JP,43.32,145.57,53.56,66,98,9.73,overcast clouds,2020-10-31 23:33:41
215,Fort Nelson,CA,58.81,-122.7,26.6,92,75,2.24,broken clouds,2020-10-31 23:24:23
216,Bukachacha,RU,52.98,116.92,21.88,90,100,4.56,overcast clouds,2020-10-31 23:33:42
217,Kulhudhuffushi,MV,6.62,73.07,82.26,70,43,5.37,scattered clouds,2020-10-31 23:33:42
218,Mount Isa,AU,-20.73,139.5,82.4,16,0,10.29,clear sky,2020-10-31 23:25:03
219,Chara,RU,56.91,118.26,6.37,88,100,3.13,overcast clouds,2020-10-31 23:22:37
220,Evensk,RU,61.95,159.23,24.33,92,78,13.15,broken clouds,2020-10-31 23:25:30
221,Bethel,US,41.37,-73.41,37.0,74,1,4.7,clear sky,2020-10-31 23:23:58
222,San Patricio,US,28.02,-97.52,73.4,56,20,11.41,few clouds,2020-10-31 23:24:03
223,Sobolevo,RU,54.43,31.9,44.74,82,100,11.05,overcast clouds,2020-10-31 23:25:36
224,Dukat,RU,62.55,155.55,14.07,96,100,5.53,overcast clouds,2020-10-31 23:22:41
225,Luau,AO,-10.71,22.22,65.73,75,52,2.84,broken clouds,2020-10-31 23:33:43
226,Hofn,IS,64.25,-15.21,42.78,72,100,18.84,light rain,2020-10-31 23:22:20
227,Trincomalee,LK,8.57,81.23,78.69,78,44,5.23,scattered clouds,2020-10-31 23:29:08
228,San Luis,AR,-33.3,-66.34,66.94,26,0,6.06,clear sky,2020-10-31 23:31:17
229,Kuliyapitiya,LK,7.47,80.04,78.8,94,20,1.12,few clouds,2020-10-31 23:33:43
230,Walvis Bay,NA,-22.96,14.51,55.0,87,0,5.82,clear sky,2020-10-31 23:33:44
231,Saskylakh,RU,71.92,114.08,-5.13,85,1,7.38,clear sky,2020-10-31 23:20:07
232,Bathsheba,BB,13.22,-59.52,78.8,88,75,4.7,broken clouds,2020-10-31 23:24:00
233,Qaanaaq,GL,77.48,-69.36,6.85,83,59,6.2,broken clouds,2020-10-31 23:21:27
234,Port Hardy,CA,50.7,-127.42,50.0,76,90,9.17,overcast clouds,2020-10-31 23:24:11
235,Gobabis,NA,-22.45,18.97,72.59,50,40,7.43,scattered clouds,2020-10-31 23:33:44
236,Katobu,ID,-4.94,122.53,80.29,79,94,0.89,overcast clouds,2020-10-31 23:25:08
237,Kalabo,ZM,-14.97,22.68,75.99,34,92,2.68,overcast clouds,2020-10-31 23:33:44
238,Coihaique,CL,-45.58,-72.07,71.6,33,0,5.82,clear sky,2020-10-31 23:23:57
239,Ponta Delgada,PT,37.73,-25.67,69.8,94,75,17.22,broken clouds,2020-10-31 23:25:08
240,Aklavik,CA,68.22,-135.01,-0.4,84,20,2.62,few clouds,2020-10-31 23:22:40
241,Yarmouth,US,41.71,-70.23,35.6,80,1,6.53,clear sky,2020-10-31 23:32:29
242,Klaksvik,FO,62.23,-6.59,46.4,100,94,9.17,light rain,2020-10-31 23:24:14
243,Dire Dawa,ET,9.59,41.87,66.33,66,0,6.29,clear sky,2020-10-31 23:33:45
244,Bairiki,KI,1.33,172.98,86.0,66,75,11.41,broken clouds,2020-10-31 23:31:05
245,Istanbul,TR,41.04,28.98,57.2,100,75,17.22,broken clouds,2020-10-31 23:33:45
246,Najran,SA,17.49,44.13,60.8,38,0,0.45,clear sky,2020-10-31 23:25:18
247,Itaborai,BR,-22.74,-42.86,69.8,88,90,5.82,overcast clouds,2020-10-31 23:33:46
248,Gwembe,ZM,-16.5,27.61,66.54,56,0,5.28,clear sky,2020-10-31 23:33:46
249,Nome,US,64.5,-165.41,28.0,68,40,8.05,scattered clouds,2020-10-31 23:21:11
250,Izhma,RU,65.01,53.91,33.51,92,94,9.51,overcast clouds,2020-10-31 23:33:46
251,San Francisco,US,37.77,-122.42,77.0,36,1,12.75,clear sky,2020-10-31 23:29:59
252,Sabha,LY,27.04,14.43,61.12,51,0,10.94,clear sky,2020-10-31 23:24:26
253,Ust-Barguzin,RU,53.45,108.98,28.0,92,93,8.81,light snow,2020-10-31 23:33:46
254,Asau,RO,46.43,26.4,46.4,87,90,19.46,overcast clouds,2020-10-31 23:22:54
255,Tigil,RU,57.8,158.67,35.76,81,100,4.09,overcast clouds,2020-10-31 23:24:13
256,Sitka,US,57.05,-135.33,51.8,87,90,16.11,moderate rain,2020-10-31 23:24:45
257,Nanortalik,GL,60.14,-45.24,28.67,89,55,21.45,broken clouds,2020-10-31 23:33:47
258,Caravelas,BR,-17.71,-39.25,71.91,95,100,3.83,light rain,2020-10-31 23:24:54
259,Inhambane,MZ,-23.86,35.38,71.78,74,34,11.39,scattered clouds,2020-10-31 23:33:47
260,Waingapu,ID,-9.66,120.26,84.02,63,83,4.54,broken clouds,2020-10-31 23:33:47
261,Constitucion,CL,-35.33,-72.42,57.69,83,10,6.6,clear sky,2020-10-31 23:24:24
262,Sapele,NG,5.89,5.68,75.58,94,67,2.33,broken clouds,2020-10-31 23:33:48
263,Hirara,JP,24.8,125.28,75.2,83,75,13.87,shower rain,2020-10-31 23:24:20
264,Rawson,AR,-43.3,-65.1,73.17,21,1,21.7,clear sky,2020-10-31 23:33:48
265,Singleton,AU,-32.57,151.18,71.01,77,90,12.75,overcast clouds,2020-10-31 23:30:58
266,Iskateley,RU,67.68,53.15,33.51,92,95,13.15,overcast clouds,2020-10-31 23:33:48
267,Vila Velha,BR,-20.33,-40.29,69.8,88,90,5.82,light rain,2020-10-31 23:22:02
268,Torbay,CA,47.67,-52.73,35.01,84,75,11.41,broken clouds,2020-10-31 23:22:48
269,Abaza,RU,52.66,90.09,23.49,94,71,4.18,broken clouds,2020-10-31 23:33:49
270,Dryden,CA,49.78,-92.75,28.4,74,90,23.04,overcast clouds,2020-10-31 23:33:49
271,Mount Gambier,AU,-37.83,140.77,57.2,71,75,11.41,broken clouds,2020-10-31 23:24:47
272,Sao Joao Da Barra,BR,-21.64,-41.05,70.23,90,100,12.55,light rain,2020-10-31 23:20:57
273,Orotukan,RU,62.27,151.7,15.62,94,99,1.34,overcast clouds,2020-10-31 23:33:49
274,Poltavka,RU,54.37,71.76,35.98,83,51,10.22,broken clouds,2020-10-31 23:33:49
275,Humaita,BR,-7.51,-63.02,75.09,96,100,5.53,moderate rain,2020-10-31 23:33:49
276,Yeniseysk,RU,58.45,92.17,19.4,97,100,8.43,light snow,2020-10-31 23:33:50
277,Toora-Khem,RU,52.47,96.11,21.6,93,96,2.19,overcast clouds,2020-10-31 23:33:50
278,Discovery Bay,US,37.91,-121.6,80.01,23,1,2.06,clear sky,2020-10-31 23:33:50
279,Mandalgovi,MN,45.76,106.27,19.69,84,1,9.01,clear sky,2020-10-31 23:33:50
280,Fairbanks,US,64.84,-147.72,9.0,71,90,2.77,light snow,2020-10-31 23:28:50
281,Uttarkashi,IN,30.73,78.45,58.75,30,0,7.29,clear sky,2020-10-31 23:33:50
282,Panguna,PG,-6.32,155.48,80.46,76,32,2.21,light rain,2020-10-31 23:33:50
283,Okhotsk,RU,59.38,143.3,15.66,87,53,15.28,broken clouds,2020-10-31 23:33:50
284,Karpathos,GR,35.51,27.21,66.2,63,0,17.22,clear sky,2020-10-31 23:24:20
285,Eenhana,NA,-17.47,16.33,84.2,37,27,4.7,scattered clouds,2020-10-31 23:33:51
286,Erzin,TR,36.96,36.2,69.01,75,0,2.42,light rain,2020-10-31 23:24:51
287,Pitimbu,BR,-7.47,-34.81,78.8,83,20,8.05,few clouds,2020-10-31 23:25:37
288,Port Hedland,AU,-20.32,118.57,80.6,65,0,12.75,clear sky,2020-10-31 23:31:41
289,Pacific Grove,US,36.62,-121.92,68.0,60,1,3.36,clear sky,2020-10-31 23:24:13
290,Tilichiki,RU,60.47,166.1,26.26,95,98,6.87,overcast clouds,2020-10-31 23:33:51
291,Serebryansk,KZ,49.69,83.29,24.8,92,4,3.27,mist,2020-10-31 23:33:51
292,Richards Bay,ZA,-28.78,32.04,63.36,89,100,4.61,light rain,2020-10-31 23:24:20
293,Reus,ES,41.16,1.11,61.0,87,90,8.05,overcast clouds,2020-10-31 23:33:52
294,Husavik,IS,66.04,-17.34,37.4,74,0,3.36,clear sky,2020-10-31 23:24:46
295,Lichtenau,DE,51.62,8.9,55.4,82,90,13.87,overcast clouds,2020-10-31 23:33:52
296,Ribeira Grande,PT,38.52,-28.7,68.99,93,67,21.03,broken clouds,2020-10-31 23:33:52
297,Chapais,CA,49.78,-74.85,26.6,68,75,10.29,broken clouds,2020-10-31 23:32:40
298,Nedjo,ET,9.5,35.5,55.81,93,78,1.79,broken clouds,2020-10-31 23:33:53
299,Baruun-Urt,MN,46.68,113.28,21.25,84,0,10.31,clear sky,2020-10-31 23:33:53
300,Tiksi,RU,71.69,128.87,1.42,92,98,5.84,overcast clouds,2020-10-31 23:23:58
301,Broken Hill,AU,-31.95,141.43,62.6,63,0,10.29,clear sky,2020-10-31 23:33:53
302,Synya,RU,65.37,58.04,31.95,98,100,9.4,overcast clouds,2020-10-31 23:33:53
303,Marystown,CA,47.17,-55.15,36.0,100,29,5.99,scattered clouds,2020-10-31 23:33:53
304,Fuling,CN,29.7,107.39,59.47,90,100,1.66,light rain,2020-10-31 23:33:53
305,Flinders,AU,-34.58,150.86,62.01,87,92,7.0,moderate rain,2020-10-31 23:22:53
306,Airai,TL,-8.93,125.41,68.11,53,47,1.92,scattered clouds,2020-10-31 23:21:46
307,Tefe,BR,-3.35,-64.71,71.6,94,40,2.24,scattered clouds,2020-10-31 23:33:54
308,Byron Bay,AU,-28.65,153.62,78.01,49,0,10.29,clear sky,2020-10-31 23:22:52
309,Ptichye,RU,45.52,41.71,53.01,93,75,2.86,broken clouds,2020-10-31 23:33:54
310,Beloha,MG,-25.17,45.05,63.84,84,0,8.97,clear sky,2020-10-31 23:33:54
311,Pacifica,US,37.61,-122.49,75.2,36,1,12.75,clear sky,2020-10-31 23:30:01
312,Ouango,CF,4.31,22.56,70.34,96,86,2.24,light rain,2020-10-31 23:33:54
313,Marawi,PH,8.0,124.29,77.0,84,100,5.99,light rain,2020-10-31 23:33:55
314,Roura,GF,4.73,-52.33,77.0,100,0,4.14,clear sky,2020-10-31 23:33:55
315,Kargopol,RU,61.51,38.95,28.63,97,0,2.33,clear sky,2020-10-31 23:33:55
316,Iskenderun,TR,36.59,36.17,70.0,77,0,2.24,clear sky,2020-10-31 23:33:55
317,Jiuquan,CN,39.74,98.52,32.36,75,24,3.76,few clouds,2020-10-31 23:33:55
318,Florianopolis,BR,-27.61,-48.5,64.4,77,75,2.24,light rain,2020-10-31 23:29:10
319,Bilma,NE,18.69,12.92,71.19,31,0,16.17,clear sky,2020-10-31 23:33:55
320,Provideniya,RU,64.38,-173.3,23.05,88,44,5.39,scattered clouds,2020-10-31 23:20:08
321,San Angelo,US,31.46,-100.44,78.8,29,1,6.93,clear sky,2020-10-31 23:33:02
322,Damietta,EG,31.42,31.81,75.2,69,40,10.29,scattered clouds,2020-10-31 23:33:56
323,Nikki,BJ,9.94,3.21,75.74,37,38,1.03,scattered clouds,2020-10-31 23:33:56
324,Bambanglipuro,ID,-7.95,110.28,78.8,80,32,6.08,scattered clouds,2020-10-31 23:33:56
325,Rive-De-Gier,FR,45.53,4.62,52.0,93,0,6.93,clear sky,2020-10-31 23:33:56
326,Kunovice,CZ,49.05,17.47,41.0,98,35,1.99,scattered clouds,2020-10-31 23:33:56
327,Sangar,RU,63.92,127.47,-14.71,88,11,1.36,few clouds,2020-10-31 23:33:57
328,Los Llanos De Aridane,ES,28.66,-17.92,80.6,22,0,10.29,clear sky,2020-10-31 23:23:57
329,Bermeo,ES,43.42,-2.72,66.2,63,0,4.7,clear sky,2020-10-31 23:33:57
330,Srednekolymsk,RU,67.45,153.68,7.14,94,100,3.91,light snow,2020-10-31 23:33:57
331,Phek,IN,25.67,94.5,58.55,100,100,1.07,overcast clouds,2020-10-31 23:33:57
332,Tuatapere,NZ,-46.13,167.68,55.0,76,68,15.99,light rain,2020-10-31 23:25:06
333,Suzun,RU,53.78,82.31,29.98,98,90,5.21,overcast clouds,2020-10-31 23:33:45
334,Moose Factory,CA,51.26,-80.61,35.6,69,90,23.04,light rain,2020-10-31 23:33:58
335,Bela,IN,25.93,81.98,68.74,30,23,5.61,few clouds,2020-10-31 23:33:58
336,Emilio Carranza,MX,19.97,-96.61,74.37,73,6,7.74,clear sky,2020-10-31 23:24:36
337,Alta Floresta,BR,-9.88,-56.09,78.24,73,99,0.78,very heavy rain,2020-10-31 23:25:04
338,Sault Sainte Marie,CA,46.52,-84.33,42.8,56,1,13.87,clear sky,2020-10-31 23:31:17
339,Yuzhno-Kurilsk,RU,44.03,145.86,51.71,66,99,10.07,overcast clouds,2020-10-31 23:33:58
340,Stephenville,US,32.22,-98.2,73.4,28,1,3.36,clear sky,2020-10-31 23:31:34
341,Leticia,CO,-4.22,-69.94,77.0,88,0,1.74,light rain,2020-10-31 23:33:25
342,Korla,CN,41.76,86.15,37.44,71,0,3.15,clear sky,2020-10-31 23:21:25
343,Lahij,YE,13.17,44.58,72.79,67,0,5.59,clear sky,2020-10-31 23:33:59
344,Ustye,RU,59.63,39.74,29.75,96,0,3.98,clear sky,2020-10-31 23:33:59
345,Bauska,LV,56.41,24.19,44.6,100,90,2.24,overcast clouds,2020-10-31 23:33:59
346,The Valley,AI,18.22,-63.06,82.4,74,40,14.99,scattered clouds,2020-10-31 23:33:59
347,Finote Selam,ET,10.7,37.27,55.06,87,69,2.66,broken clouds,2020-10-31 23:33:59
348,Mahebourg,MU,-20.41,57.7,66.2,82,40,8.05,shower rain,2020-10-31 23:24:13
349,Pontiac,US,42.64,-83.29,46.0,56,20,12.75,few clouds,2020-10-31 23:33:59
350,Goderich,CA,43.75,-81.72,41.0,65,8,11.41,clear sky,2020-10-31 23:25:35
351,Axim,GH,4.87,-2.24,78.21,87,51,5.08,broken clouds,2020-10-31 23:34:00
352,Alofi,NU,-19.06,-169.92,78.8,88,54,18.34,broken clouds,2020-10-31 23:34:00
353,Sakakah,SA,29.97,40.21,71.6,13,0,3.36,clear sky,2020-10-31 23:34:00
354,Saint-Francois,FR,46.42,3.91,50.0,100,0,4.7,clear sky,2020-10-31 23:24:38
355,Dekernes,EG,31.09,31.59,75.2,69,40,10.29,scattered clouds,2020-10-31 23:34:00
356,Iqaluit,CA,63.75,-68.51,10.4,78,40,6.93,scattered clouds,2020-10-31 23:24:40
357,Leningradskiy,RU,69.38,178.42,17.42,90,57,8.28,broken clouds,2020-10-31 23:25:05
358,Fomboni,KM,-12.28,43.74,77.81,77,100,6.8,overcast clouds,2020-10-31 23:34:01
359,Lindi,TZ,-10.0,39.72,73.4,94,40,1.07,scattered clouds,2020-10-31 23:34:01
360,Emerald,AU,-23.53,148.17,82.4,30,0,17.22,light rain,2020-10-31 23:34:01
361,Alyangula,AU,-13.85,136.42,84.2,66,0,3.36,clear sky,2020-10-31 23:34:01
362,Kavaratti,IN,10.57,72.64,81.73,70,50,3.85,scattered clouds,2020-10-31 23:22:18
363,Adrar,MR,20.5,-10.07,80.55,16,67,11.79,broken clouds,2020-10-31 23:34:01
364,Westerland,DE,54.91,8.3,53.6,93,75,18.34,broken clouds,2020-10-31 23:34:01
365,Kerchevskiy,RU,59.95,56.29,30.76,94,93,6.89,overcast clouds,2020-10-31 23:34:02
366,Namatanai,PG,-3.67,152.43,86.18,66,81,4.56,broken clouds,2020-10-31 23:34:02
367,Puerto Colombia,CO,10.99,-74.95,78.8,94,75,4.7,broken clouds,2020-10-31 23:30:57
368,Morant Bay,JM,17.88,-76.41,82.4,83,40,6.93,scattered clouds,2020-10-31 23:34:02
369,Haines Junction,CA,60.75,-137.51,12.2,78,100,8.05,snow,2020-10-31 23:34:02
370,Benguela,AO,-12.58,13.41,77.38,81,95,5.55,overcast clouds,2020-10-31 23:34:02
371,Leskovac,RS,43.0,21.95,52.0,87,20,13.87,few clouds,2020-10-31 23:34:03
372,Puri,IN,19.8,85.85,77.0,94,40,3.36,haze,2020-10-31 23:34:03
373,Lata,PT,40.16,-8.33,64.0,89,83,2.71,broken clouds,2020-10-31 23:22:12
374,Bud,US,39.45,-86.18,52.0,57,1,6.93,clear sky,2020-10-31 23:21:46
375,Esfarayen,IR,37.08,57.51,41.0,44,0,1.66,clear sky,2020-10-31 23:34:03
376,Katsuura,JP,35.13,140.3,57.99,67,75,12.75,broken clouds,2020-10-31 23:22:22
377,Machhiwara,IN,30.91,76.2,60.8,72,5,1.12,haze,2020-10-31 23:34:03
378,Wangqing,CN,43.32,129.76,45.77,72,34,6.17,light rain,2020-10-31 23:34:03
379,Orodara,BF,10.95,-4.93,78.8,61,0,1.34,clear sky,2020-10-31 23:34:04
380,Bolshaya Sosnova,RU,57.67,54.6,34.92,88,96,10.94,overcast clouds,2020-10-31 23:34:04
381,Magistralnyy,RU,56.17,107.45,18.81,88,98,9.91,overcast clouds,2020-10-31 23:34:04
382,Ballina,AU,-28.87,153.57,77.0,38,0,11.41,clear sky,2020-10-31 23:34:04
383,Daru,PG,-9.08,143.21,82.92,73,83,12.08,broken clouds,2020-10-31 23:25:25
384,Pasni,PK,25.26,63.47,74.01,25,0,11.99,clear sky,2020-10-31 23:34:04
385,Abu Zabad,SD,12.35,29.25,81.43,22,10,8.99,clear sky,2020-10-31 23:24:58
386,Abay,KZ,49.63,72.85,14.0,85,0,4.47,clear sky,2020-10-31 23:34:04
387,Mehamn,NO,71.04,27.85,38.01,81,100,14.43,overcast clouds,2020-10-31 23:22:41
388,Peniche,PT,39.36,-9.38,64.99,86,97,4.0,overcast clouds,2020-10-31 23:30:55
389,Zagreb,HR,45.81,15.98,53.01,93,38,0.67,fog,2020-10-31 23:30:14
390,De-Kastri,RU,51.47,140.78,46.51,75,100,11.86,overcast clouds,2020-10-31 23:34:05
391,Bosaso,SO,11.28,49.18,75.96,82,0,2.51,clear sky,2020-10-31 23:34:05
392,Murray Bridge,AU,-35.12,139.27,59.0,81,3,3.67,clear sky,2020-10-31 23:24:23
393,Mahibadhoo,MV,3.78,72.97,82.13,73,75,6.85,broken clouds,2020-10-31 23:25:13
394,Hasaki,JP,35.73,140.83,51.8,87,40,5.82,scattered clouds,2020-10-31 23:25:23
395,Sabzevar,IR,36.21,57.68,48.04,57,0,0.18,clear sky,2020-10-31 23:24:52
396,Hajnowka,PL,52.74,23.58,42.01,86,10,2.08,clear sky,2020-10-31 23:34:06
397,Itai,BR,-23.42,-49.09,58.19,83,59,11.5,broken clouds,2020-10-31 23:34:06
398,Dallas,US,32.77,-96.78,66.99,51,29,5.91,scattered clouds,2020-10-31 23:32:11
399,Ulaanbaatar,MN,47.91,106.88,10.4,85,40,5.59,scattered clouds,2020-10-31 23:32:51
400,Talcahuano,CL,-36.72,-73.12,55.4,87,90,6.93,overcast clouds,2020-10-31 23:30:57
401,Evansville,US,37.97,-87.56,57.2,50,1,3.36,clear sky,2020-10-31 23:31:44
402,Kudahuvadhoo,MV,2.67,72.89,82.31,73,73,5.26,broken clouds,2020-10-31 23:34:06
403,Qasigiannguit,GL,68.82,-51.19,21.2,73,100,10.29,light shower snow,2020-10-31 23:24:14
404,Aksu,CN,41.12,80.26,37.92,69,0,1.88,clear sky,2020-10-31 23:25:29
405,Salinas,US,36.68,-121.66,73.99,40,1,13.87,clear sky,2020-10-31 23:34:07
406,Itarema,BR,-2.92,-39.92,79.29,84,94,13.09,overcast clouds,2020-10-31 23:24:58
407,Samarai,PG,-10.62,150.67,81.99,80,100,8.3,light rain,2020-10-31 23:23:06
408,Chardara,KZ,41.25,67.97,47.35,51,55,2.37,broken clouds,2020-10-31 23:34:07
409,Aginskoye,RU,51.1,114.53,24.58,92,100,14.9,overcast clouds,2020-10-31 23:34:07
410,Vila Franca Do Campo,PT,37.72,-25.43,69.8,94,75,17.22,broken clouds,2020-10-31 23:24:35
411,Boyolangu,ID,-8.12,111.89,77.5,80,54,7.47,broken clouds,2020-10-31 23:34:08
412,Yerbogachen,RU,61.28,108.01,0.39,92,0,1.19,clear sky,2020-10-31 23:25:31
413,La Ronge,CA,55.1,-105.28,19.4,79,49,3.36,scattered clouds,2020-10-31 23:24:48
414,Itaituba,BR,-4.28,-55.98,82.9,61,76,1.28,moderate rain,2020-10-31 23:34:08
415,Cullinan,ZA,-25.67,28.52,66.0,97,85,3.0,overcast clouds,2020-10-31 23:34:08
416,Cayenne,GF,4.93,-52.33,77.0,100,0,10.67,clear sky,2020-10-31 23:24:39
417,Poso,ID,-1.4,120.75,87.01,60,98,3.98,overcast clouds,2020-10-31 23:34:08
418,Muli,MV,2.92,73.57,82.29,71,94,2.91,overcast clouds,2020-10-31 23:34:08
419,Half Moon Bay,US,37.46,-122.43,77.0,45,1,10.29,clear sky,2020-10-31 23:34:09
420,Trinidad,BO,-14.83,-64.9,82.4,48,47,3.36,scattered clouds,2020-10-31 23:33:23
421,Kanniyakumari,IN,8.08,77.57,79.12,81,95,7.87,overcast clouds,2020-10-31 23:34:09
422,Tupaciguara,BR,-18.59,-48.7,73.4,73,40,6.93,thunderstorm,2020-10-31 23:34:09
423,Ituporanga,BR,-27.41,-49.6,62.01,92,99,1.34,moderate rain,2020-10-31 23:34:10
424,Ulety,RU,51.36,112.48,22.14,92,94,9.1,light snow,2020-10-31 23:34:10
425,Mullovka,RU,54.2,49.4,39.2,100,90,4.47,mist,2020-10-31 23:34:10
426,Quatre Cocos,MU,-20.21,57.76,66.2,82,40,8.05,shower rain,2020-10-31 23:24:15
427,Chinhoyi,ZW,-17.37,30.2,66.69,62,0,9.6,clear sky,2020-10-31 23:34:10
428,Itatinga,BR,-23.1,-48.62,56.46,84,48,11.14,scattered clouds,2020-10-31 23:34:10
429,Ostersund,SE,63.18,14.64,37.4,93,95,13.87,overcast clouds,2020-10-31 23:30:13
430,Alenquer,BR,-1.94,-54.74,82.4,74,0,3.36,clear sky,2020-10-31 23:34:10
431,Saint-Denis,FR,48.92,2.33,57.2,82,90,4.7,overcast clouds,2020-10-31 23:34:11
432,Esperance,AU,-33.87,121.9,66.2,82,99,10.29,overcast clouds,2020-10-31 23:30:45
433,Codrington,AU,-38.27,141.97,58.75,75,22,6.78,few clouds,2020-10-31 23:34:11
434,Pontes E Lacerda,BR,-15.23,-59.34,75.61,56,26,3.47,scattered clouds,2020-10-31 23:34:11
435,Sinop,TR,41.77,34.87,47.97,74,44,4.81,scattered clouds,2020-10-31 23:32:39
436,Sola,VU,-13.88,167.55,81.55,80,67,19.33,broken clouds,2020-10-31 23:24:42
437,Shenkursk,RU,62.11,42.9,29.77,97,0,1.05,clear sky,2020-10-31 23:34:11
438,Canico,PT,32.63,-16.85,72.0,64,20,10.29,few clouds,2020-10-31 23:34:11
439,Mier,MX,26.43,-99.15,72.37,39,0,4.92,clear sky,2020-10-31 23:34:12
440,Shelopugino,RU,51.65,117.56,22.05,93,100,4.14,overcast clouds,2020-10-31 23:34:12
441,Lazaro Cardenas,MX,17.96,-102.2,83.64,73,40,8.14,light rain,2020-10-31 23:25:37
442,Myitkyina,MM,25.38,97.4,70.07,96,96,2.57,moderate rain,2020-10-31 23:34:12
443,Hannibal,US,39.71,-91.36,62.6,63,1,12.75,clear sky,2020-10-31 23:34:12
444,Muros,ES,42.78,-9.06,64.0,90,100,11.99,light rain,2020-10-31 23:24:42
445,Gawler,AU,-34.6,138.73,66.0,59,0,7.0,clear sky,2020-10-31 23:30:49
446,Parabel,RU,58.7,81.48,33.13,94,100,9.86,overcast clouds,2020-10-31 23:34:12
447,Caconda,AO,-13.73,15.07,61.38,86,100,1.72,overcast clouds,2020-10-31 23:34:13
448,Tynda,RU,55.17,124.72,14.52,90,100,7.92,overcast clouds,2020-10-31 23:34:13
449,San Jeronimo,PE,-11.95,-75.28,52.16,71,91,6.08,light rain,2020-10-31 23:34:13
450,Raha,IN,26.23,92.52,71.91,93,100,5.77,overcast clouds,2020-10-31 23:34:13
451,Bulungu,CD,-4.55,18.6,70.65,94,61,1.5,light rain,2020-10-31 23:34:13
452,Kangaatsiaq,GL,68.31,-53.46,24.76,97,100,14.12,light snow,2020-10-31 23:24:14
453,Feijo,BR,-8.16,-70.35,69.64,92,100,1.99,overcast clouds,2020-10-31 23:34:13
454,Kalavad,IN,22.22,70.38,74.97,35,0,5.06,clear sky,2020-10-31 23:34:14
455,Fallon,US,39.47,-118.78,73.4,10,20,8.05,few clouds,2020-10-31 23:24:50
456,Hami,CN,42.8,93.45,35.26,71,0,5.95,clear sky,2020-10-31 23:22:29
457,Pauini,BR,-7.71,-66.98,71.31,98,100,4.34,light rain,2020-10-31 23:34:14
458,Raudeberg,NO,61.99,5.14,50.0,71,78,29.97,light rain,2020-10-31 23:25:31
459,Barcelos,PT,41.54,-8.62,62.6,93,90,10.29,mist,2020-10-31 23:24:57
460,Hambantota,LK,6.12,81.12,78.58,81,80,6.33,broken clouds,2020-10-31 23:34:14
461,Lerwick,GB,60.15,-1.15,50.0,81,94,44.96,light rain,2020-10-31 23:34:14
462,Guiren,CN,33.67,118.19,60.96,60,94,2.51,overcast clouds,2020-10-31 23:34:14
463,Jackson,US,42.42,-122.83,72.0,41,0,1.99,clear sky,2020-10-31 23:29:32
464,Sioux Lookout,CA,50.1,-91.92,32.0,96,90,16.11,overcast clouds,2020-10-31 23:33:33
465,Waipawa,NZ,-41.41,175.52,64.4,48,2,19.46,clear sky,2020-10-31 23:24:41
466,Abu Samrah,SY,35.3,37.18,61.97,73,49,3.71,scattered clouds,2020-10-31 23:34:15
467,Brae,GB,60.4,-1.35,50.0,81,98,44.96,light rain,2020-10-31 23:34:15
468,Tiznit,MA,29.58,-9.5,70.63,25,0,3.69,clear sky,2020-10-31 23:24:55
469,Libreville,GA,0.39,9.45,80.6,88,75,6.93,broken clouds,2020-10-31 23:34:15
470,Goksun,TR,38.02,36.5,59.0,41,40,3.36,scattered clouds,2020-10-31 23:34:16
471,Pyapon,MM,16.28,95.68,77.05,90,88,3.6,overcast clouds,2020-10-31 23:34:16
472,Port Dickson,MY,2.52,101.8,77.0,94,20,2.24,moderate rain,2020-10-31 23:34:16
473,Eyl,SO,7.98,49.82,78.53,76,11,9.53,few clouds,2020-10-31 23:34:16
474,Morehead,US,37.27,-87.18,62.6,48,1,3.36,clear sky,2020-10-31 23:25:15
475,Ous,RU,60.91,61.52,29.05,95,99,9.55,overcast clouds,2020-10-31 23:34:16
476,Port Augusta,AU,-32.5,137.77,66.0,68,0,3.36,clear sky,2020-10-31 23:34:16
477,Urengoy,RU,65.97,78.37,28.71,99,100,12.3,overcast clouds,2020-10-31 23:31:06
478,Garowe,SO,8.41,48.48,74.55,68,4,7.72,clear sky,2020-10-31 23:34:17
479,Nabire,ID,-3.37,135.48,85.87,66,95,1.48,overcast clouds,2020-10-31 23:34:17
480,Umm Lajj,SA,25.02,37.27,78.12,69,0,2.95,clear sky,2020-10-31 23:25:00
481,Pandharpur,IN,17.67,75.33,71.76,69,20,3.49,few clouds,2020-10-31 23:34:17
482,Nisia Floresta,BR,-6.09,-35.21,78.8,83,20,9.17,few clouds,2020-10-31 23:34:17
483,Kolindros,GR,40.48,22.48,61.0,63,15,1.99,few clouds,2020-10-31 23:34:17
484,Panorama,GR,40.59,23.03,66.2,52,20,13.87,few clouds,2020-10-31 23:34:17
485,Trento,IT,46.07,11.12,50.0,81,70,1.01,broken clouds,2020-10-31 23:34:18
486,Mackay,AU,-21.15,149.2,86.0,58,0,11.41,clear sky,2020-10-31 23:34:12
487,Ciudad Bolivar,VE,8.12,-63.55,82.47,76,84,7.47,light rain,2020-10-31 23:24:25
488,Kapuskasing,CA,49.42,-82.43,35.6,64,100,18.34,overcast clouds,2020-10-31 23:34:18
489,Padang,ID,-0.95,100.35,77.4,83,100,7.81,overcast clouds,2020-10-31 23:34:18
490,Huangpu,CN,25.44,113.17,66.34,83,94,2.89,overcast clouds,2020-10-31 23:34:18
491,Dudinka,RU,69.41,86.18,21.2,85,75,29.08,light shower snow,2020-10-31 23:34:18
492,San Ramon,US,37.78,-121.98,81.0,21,1,11.41,smoke,2020-10-31 23:34:19
493,Manta,EC,-0.95,-80.73,75.2,83,75,10.29,broken clouds,2020-10-31 23:29:38
494,Zhanakorgan,KZ,43.91,67.25,41.68,61,0,5.32,clear sky,2020-10-31 23:34:19
495,Teya,RU,60.38,92.63,14.49,91,99,6.44,overcast clouds,2020-10-31 23:25:05
496,Anadyr,RU,64.75,177.48,5.0,84,40,8.95,scattered clouds,2020-10-31 23:24:22
497,Koslan,RU,63.46,48.9,30.83,97,62,6.24,broken clouds,2020-10-31 23:34:19
498,Montrose,US,38.42,-108.27,68.0,25,1,5.82,clear sky,2020-10-31 23:34:19
499,Belmira,CO,6.61,-75.67,62.6,88,75,6.93,broken clouds,2020-10-31 23:34:20
500,Itaberaba,BR,-12.53,-40.31,77.79,70,73,5.93,broken clouds,2020-10-31 23:34:20
501,Liepaja,LV,56.54,21.04,46.4,87,0,5.82,clear sky,2020-10-31 23:34:20
502,Petrivka,UA,46.97,30.96,46.4,93,75,11.18,broken clouds,2020-10-31 23:34:20
503,Santa Barbara,US,34.73,-120.03,87.8,12,1,8.05,clear sky,2020-10-31 23:31:42
504,Guane,CU,22.2,-84.09,77.41,90,39,7.56,scattered clouds,2020-10-31 23:34:20
505,Anyksciai,LT,55.53,25.1,41.95,94,0,3.56,clear sky,2020-10-31 23:34:20
506,Khandela,IN,27.6,75.5,57.78,32,0,1.99,clear sky,2020-10-31 23:34:20
507,Dengzhou,CN,37.81,120.75,58.55,45,91,11.52,overcast clouds,2020-10-31 23:34:20
508,Dhidhdhoo,MV,6.88,73.1,82.22,71,41,5.82,scattered clouds,2020-10-31 23:34:21
509,Newport,GB,51.59,-3.0,52.0,87,100,3.0,overcast clouds,2020-10-31 23:31:10
510,Amapa,BR,1.0,-52.0,81.03,66,79,4.21,broken clouds,2020-10-31 23:34:21
511,Sorrento,IT,40.63,14.37,64.4,77,20,3.36,few clouds,2020-10-31 23:34:21
512,Iralaya,HN,15.0,-83.23,80.29,85,100,12.91,moderate rain,2020-10-31 23:34:21
513,Huarmey,PE,-10.07,-78.15,64.11,79,92,8.23,overcast clouds,2020-10-31 23:25:18
514,Volosovo,RU,59.43,29.48,37.0,93,13,4.47,fog,2020-10-31 23:34:21
515,Shatalovo,RU,54.33,32.45,43.83,84,92,12.64,moderate rain,2020-10-31 23:34:21
516,Saldanha,ZA,-33.01,17.94,57.2,62,0,6.93,clear sky,2020-10-31 23:24:59
517,Krasnyy Yar,RU,46.53,48.35,46.4,75,75,2.24,broken clouds,2020-10-31 23:34:22
518,Lebyazhye,RU,55.27,66.49,35.85,83,100,12.73,overcast clouds,2020-10-31 23:34:22
519,Moron,AR,-34.65,-58.62,64.99,37,0,3.0,clear sky,2020-10-31 23:34:22
520,Bontoc,PH,17.09,120.98,70.88,72,100,4.65,overcast clouds,2020-10-31 23:34:22
521,Malangwa,NP,26.86,85.56,69.64,73,36,2.8,scattered clouds,2020-10-31 23:34:22
522,Eureka,US,40.8,-124.16,64.0,87,40,4.7,mist,2020-10-31 23:34:22
523,Hillsborough,US,37.57,-122.38,77.0,36,1,12.75,clear sky,2020-10-31 23:34:22
524,Bowen,AU,-20.02,148.23,86.0,51,0,8.05,clear sky,2020-10-31 23:34:23
525,Teeli,RU,51.03,90.23,21.67,89,49,0.74,scattered clouds,2020-10-31 23:34:23
526,Serenje,ZM,-13.23,30.24,60.03,72,0,5.59,clear sky,2020-10-31 23:24:25
527,Kavieng,PG,-2.57,150.8,85.19,72,2,10.22,clear sky,2020-10-31 23:21:22
528,Zhenlai,CN,45.85,123.3,38.68,65,19,15.99,few clouds,2020-10-31 23:34:23
529,Bonavista,CA,48.65,-53.11,34.0,68,99,6.93,overcast clouds,2020-10-31 23:34:23
530,Banikoara,BJ,11.3,2.44,78.48,35,9,1.54,clear sky,2020-10-31 23:34:23
531,Port Macquarie,AU,-31.43,152.92,75.99,46,0,1.99,clear sky,2020-10-31 23:31:11
532,Barsovo,RU,61.17,73.17,32.0,98,75,8.95,broken clouds,2020-10-31 23:34:24
533,Salta,AR,-24.79,-65.41,69.8,30,75,13.87,broken clouds,2020-10-31 23:34:24
534,Pochutla,MX,15.74,-96.47,84.2,70,40,3.83,scattered clouds,2020-10-31 23:34:24
535,Tessalit,ML,20.2,1.01,75.43,20,42,10.36,scattered clouds,2020-10-31 23:34:24
536,Galle,LK,6.04,80.22,77.99,84,55,5.86,broken clouds,2020-10-31 23:34:24
537,Maningrida,AU,-12.07,134.27,85.14,59,14,7.67,few clouds,2020-10-31 23:25:10
538,Batsfjord,NO,70.63,29.72,36.52,83,100,11.83,overcast clouds,2020-10-31 23:23:01
539,Abbeville,FR,50.1,1.83,52.0,83,86,9.42,moderate rain,2020-10-31 23:34:25
540,Mareeba,AU,-17.0,145.43,88.0,61,40,11.41,scattered clouds,2020-10-31 23:34:25
541,Maputo,MZ,-25.97,32.59,68.0,88,75,14.99,light rain,2020-10-31 23:32:19
542,Belawan,ID,3.78,98.68,76.19,91,99,6.78,moderate rain,2020-10-31 23:34:25
543,Ndioum,SN,16.51,-14.65,80.6,47,0,8.03,clear sky,2020-10-31 23:34:25
544,Sayyan,YE,15.17,44.32,48.78,47,0,4.14,clear sky,2020-10-31 23:34:25
545,Wewak,PG,-3.55,143.63,84.72,68,54,8.19,moderate rain,2020-10-31 23:34:26
546,Gazli,UZ,40.13,63.45,45.03,48,0,6.33,clear sky,2020-10-31 23:34:26
547,Anloga,GH,5.79,0.9,80.6,88,40,9.17,scattered clouds,2020-10-31 23:34:26
548,Ahar,IR,38.48,47.07,55.83,37,13,4.61,few clouds,2020-10-31 23:34:26
549,Turka,UA,49.15,23.03,44.01,86,74,1.66,broken clouds,2020-10-31 23:34:26
550,Sept-Iles,CA,50.2,-66.38,32.0,87,0,10.29,snow,2020-10-31 23:30:12
551,Van,TR,38.49,43.38,48.2,45,40,1.12,scattered clouds,2020-10-31 23:34:26
552,Neuquen,AR,-38.95,-68.06,82.4,24,0,6.93,clear sky,2020-10-31 23:25:26
553,Berbera,SO,10.44,45.01,81.54,64,0,5.53,clear sky,2020-10-31 23:34:27
554,Biloela,AU,-24.42,150.5,80.11,44,44,5.84,scattered clouds,2020-10-31 23:34:27
555,Meulaboh,ID,4.14,96.13,78.15,81,100,4.85,overcast clouds,2020-10-31 23:34:27
556,Fuldatal,DE,51.38,9.57,53.01,93,75,5.82,broken clouds,2020-10-31 23:34:28
557,Porto Novo,BJ,6.5,2.6,82.4,83,40,10.29,scattered clouds,2020-10-31 23:24:41
558,Nosy Varika,MG,-20.58,48.53,63.77,80,73,4.18,broken clouds,2020-10-31 23:34:28
559,Khani,GE,41.96,42.96,59.0,93,75,5.82,broken clouds,2020-10-31 23:34:28
560,West Plains,US,36.73,-91.85,59.0,51,1,5.82,clear sky,2020-10-31 23:34:29
561,Kahului,US,20.89,-156.47,89.6,43,20,11.41,few clouds,2020-10-31 23:24:52
562,Olafsvik,IS,64.89,-23.71,42.22,83,69,8.23,broken clouds,2020-10-31 23:34:29
563,Dali,CN,25.7,100.18,57.76,87,70,3.96,broken clouds,2020-10-31 23:34:29
564,Havoysund,NO,71.0,24.66,37.4,74,41,16.11,scattered clouds,2020-10-31 23:22:06
565,Stornoway,GB,58.21,-6.39,46.4,81,82,20.8,broken clouds,2020-10-31 23:34:29
566,Luba,GQ,3.46,8.55,73.4,100,20,4.25,few clouds,2020-10-31 23:24:35
567,Te Anau,NZ,-45.42,167.72,53.8,61,63,9.22,broken clouds,2020-10-31 23:34:29
568,Jibuti,DJ,11.5,42.5,82.4,65,40,14.94,scattered clouds,2020-10-31 23:34:30
569,Chhoti Sadri,IN,24.38,74.7,63.18,28,0,3.24,clear sky,2020-10-31 23:34:30
570,Pangody,RU,65.85,74.49,25.36,98,100,10.18,overcast clouds,2020-10-31 23:34:30
571,Gamba,GA,-2.65,10.0,76.53,91,91,4.74,overcast clouds,2020-10-31 23:34:30
572,Ahuimanu,US,21.44,-157.84,86.0,65,40,5.82,scattered clouds,2020-10-31 23:34:30
573,Svetlogorsk,BY,52.63,29.73,45.21,86,94,12.55,overcast clouds,2020-10-31 23:34:30
574,Santander,ES,43.46,-3.8,69.8,52,75,6.93,broken clouds,2020-10-31 23:30:21
575,Ola,RU,59.58,151.28,33.69,91,100,8.9,overcast clouds,2020-10-31 23:34:31
576,Maues,BR,-3.38,-57.72,84.11,59,37,0.85,scattered clouds,2020-10-31 23:34:31
577,Palana,RU,59.12,159.97,33.49,87,100,4.9,overcast clouds,2020-10-31 23:34:31
578,Ekhabi,RU,53.51,142.97,37.87,94,100,16.82,light rain,2020-10-31 23:34:31
579,College,US,64.86,-147.8,9.0,71,90,2.75,light snow,2020-10-31 23:24:47
580,Mbala,ZM,-8.84,31.37,64.99,63,51,8.68,broken clouds,2020-10-31 23:34:31
581,Uyemskiy,RU,64.47,40.85,26.6,100,20,2.24,few clouds,2020-10-31 23:34:31
582,Krasnoselkup,RU,65.7,82.47,30.04,97,100,19.8,overcast clouds,2020-10-31 23:34:32
583,Ostrovnoy,RU,68.05,39.51,27.77,94,88,17.67,overcast clouds,2020-10-31 23:24:48
584,Cuamba,MZ,-14.8,36.54,70.16,74,52,0.74,broken clouds,2020-10-31 23:34:32
585,Henties Bay,NA,-22.12,14.28,55.0,91,48,5.01,scattered clouds,2020-10-31 23:34:32
586,Port Keats,AU,-14.25,129.55,86.25,67,45,4.29,scattered clouds,2020-10-31 23:25:06
587,Golden,US,39.76,-105.22,54.0,32,5,6.93,clear sky,2020-10-31 23:33:43
588,Wairoa,NZ,-39.03,177.37,72.0,46,71,8.99,broken clouds,2020-10-31 23:34:32
589,Mormugao,IN,15.4,73.8,78.8,94,40,5.82,mist,2020-10-31 23:34:32
590,Belaya Gora,RU,68.53,146.42,-4.72,91,100,4.27,overcast clouds,2020-10-31 23:34:33
591,Borgarnes,IS,64.54,-21.92,37.4,86,0,8.05,clear sky,2020-10-31 23:34:33
592,Veraval,IN,20.9,70.37,78.3,44,0,7.36,clear sky,2020-10-31 23:34:33
593,Marau,BR,-28.45,-52.2,56.71,78,6,9.66,clear sky,2020-10-31 23:34:33
594,Pakokku,MM,21.33,95.1,76.73,87,92,1.34,moderate rain,2020-10-31 23:34:33
595,Kurmanayevka,RU,52.51,52.07,43.93,85,100,5.44,overcast clouds,2020-10-31 23:34:34
596,Impfondo,CG,1.64,18.07,71.83,91,47,0.18,scattered clouds,2020-10-31 23:34:34
597,Kiama,AU,-34.68,150.87,62.01,95,95,7.0,moderate rain,2020-10-31 23:34:34
598,Cidreira,BR,-30.18,-50.21,62.55,75,37,8.72,light rain,2020-10-31 23:20:05
599,Yuli,NG,9.7,10.27,78.12,37,39,3.94,scattered clouds,2020-10-31 23:34:35
600,China,MX,25.7,-99.23,73.13,35,0,5.1,clear sky,2020-10-31 23:34:35
601,Samba,IN,32.57,75.12,61.47,43,0,2.51,clear sky,2020-10-31 23:34:35
602,Buala,SB,-8.14,159.59,86.74,61,46,1.57,scattered clouds,2020-10-31 23:34:35
603,Oum Hadjer,TD,13.3,19.7,83.26,20,18,14.2,few clouds,2020-10-31 23:34:35
604,Paamiut,GL,61.99,-49.67,23.72,93,83,5.59,light snow,2020-10-31 23:34:35
605,Den Helder,NL,52.96,4.76,55.4,76,90,12.75,overcast clouds,2020-10-31 23:34:36
606,Shahr-E Kord,IR,32.33,50.86,33.8,29,0,4.7,clear sky,2020-10-31 23:34:36
607,Xinxiang,CN,35.31,113.87,57.81,34,16,1.5,few clouds,2020-10-31 23:34:36
608,Sembabule,UG,-0.08,31.46,60.93,93,45,2.24,scattered clouds,2020-10-31 23:34:36
609,Manggar,ID,-2.88,108.27,80.96,76,94,4.23,light rain,2020-10-31 23:34:36
610,Sebeta,ET,8.92,38.62,51.17,81,11,0.74,few clouds,2020-10-31 23:34:36
611,Kushima,JP,31.46,131.23,64.4,72,75,5.82,broken clouds,2020-10-31 23:34:36
612,Kloulklubed,PW,7.04,134.26,80.6,78,90,9.17,shower rain,2020-10-31 23:25:17
613,Guanica,PR,17.97,-66.91,79.0,70,99,11.95,overcast clouds,2020-10-31 23:34:37
614,Novosergiyevka,RU,52.09,53.65,42.46,68,95,4.09,light rain,2020-10-31 23:34:37
615,Jalalpur Pirwala,PK,29.51,71.22,63.09,28,0,1.81,clear sky,2020-10-31 23:34:37
616,Tucumcari,US,35.17,-103.72,73.4,20,1,11.41,clear sky,2020-10-31 23:34:37
617,Necochea,AR,-38.55,-58.74,57.99,60,0,5.99,clear sky,2020-10-31 23:34:37
618,Mugur-Aksy,RU,50.35,90.5,18.19,86,17,2.55,few clouds,2020-10-31 23:34:37
619,Harwich,GB,51.94,1.28,52.0,73,83,5.99,moderate rain,2020-10-31 23:34:37
620,Areosa,PT,41.72,-8.86,64.99,93,90,10.29,mist,2020-10-31 23:34:38
621,Yuzhnouralsk,RU,54.44,61.25,37.94,77,100,6.89,overcast clouds,2020-10-31 23:34:38
622,Nantucket,US,41.28,-70.1,42.01,55,1,7.34,clear sky,2020-10-31 23:32:21
623,Mabaruma,GY,8.2,-59.78,79.12,87,56,4.36,broken clouds,2020-10-31 23:25:29
624,Dese,ET,11.13,39.63,48.06,92,23,1.41,few clouds,2020-10-31 23:34:38
625,Poya,NC,-21.35,165.15,84.31,51,2,6.22,clear sky,2020-10-31 23:34:38
626,Cap Malheureux,MU,-19.98,57.61,66.2,82,40,8.05,shower rain,2020-10-31 23:34:38
627,Igrim,RU,63.19,64.42,29.39,96,83,7.11,broken clouds,2020-10-31 23:34:38
628,Diamantino,BR,-14.41,-56.45,77.32,67,88,4.9,overcast clouds,2020-10-31 23:34:39
629,Alice Springs,AU,-23.7,133.88,75.2,22,42,11.41,scattered clouds,2020-10-31 23:30:11
630,Denpasar,ID,-8.65,115.22,78.04,71,96,3.29,overcast clouds,2020-10-31 23:25:33
631,Werda,BW,-25.27,23.28,71.1,57,76,13.8,light rain,2020-10-31 23:34:39
632,Fez,MA,34.04,-5.0,59.0,58,0,1.68,clear sky,2020-10-31 23:34:39
633,Shingu,JP,33.73,135.98,64.4,59,75,9.17,broken clouds,2020-10-31 23:34:39
634,Vardo,NO,70.37,31.11,37.54,92,100,12.95,overcast clouds,2020-10-31 23:22:30
635,Rockhampton,AU,-23.38,150.5,82.4,61,69,1.12,broken clouds,2020-10-31 23:34:40
636,Yamada,JP,39.47,141.95,56.88,63,69,10.54,broken clouds,2020-10-31 23:34:40
637,Lipno,PL,52.84,19.18,44.01,93,29,1.01,scattered clouds,2020-10-31 23:34:40
638,Price,US,39.6,-110.81,64.4,17,1,8.05,clear sky,2020-10-31 23:34:40
639,Union,US,40.63,-74.27,45.0,59,90,3.36,overcast clouds,2020-10-31 23:34:40
640,Sorland,NO,67.67,12.69,46.89,66,99,26.02,overcast clouds,2020-10-31 23:34:40
641,Camara De Lobos,PT,32.63,-16.97,72.0,64,20,10.29,few clouds,2020-10-31 23:34:41
642,Pareora,NZ,-44.49,171.21,64.99,73,21,3.0,few clouds,2020-10-31 23:34:41
643,Aligudarz,IR,33.4,49.69,43.23,52,0,3.2,clear sky,2020-10-31 23:34:41
644,Lac Du Bonnet,CA,50.25,-96.06,26.6,86,100,39.15,overcast clouds,2020-10-31 23:34:41
645,Harrison,US,30.41,-89.04,68.0,64,1,4.7,clear sky,2020-10-31 23:33:09
646,Taguatinga,BR,-12.39,-46.57,70.93,92,100,0.94,light rain,2020-10-31 23:34:41
647,Kingsville,US,27.52,-97.86,80.6,50,1,12.75,clear sky,2020-10-31 23:34:41
648,Corpus Christi,US,27.8,-97.4,73.4,56,20,11.41,few clouds,2020-10-31 23:29:54
649,Damaturu,NG,11.75,11.96,78.19,22,0,8.57,clear sky,2020-10-31 23:34:42
650,Sechura,PE,-5.56,-80.82,68.9,70,71,16.49,broken clouds,2020-10-31 23:25:16
651,Coquimbo,CL,-29.95,-71.34,55.4,82,75,9.17,broken clouds,2020-10-31 23:23:08
652,Brenes,ES,37.55,-5.87,64.0,82,0,2.24,clear sky,2020-10-31 23:34:42
653,Auxerre,FR,47.8,3.57,62.01,71,100,1.01,overcast clouds,2020-10-31 23:34:42
654,Ilhabela,BR,-23.78,-45.36,67.33,85,100,7.87,overcast clouds,2020-10-31 23:34:42
655,Santiago De Las Vegas,CU,22.97,-82.39,80.6,83,20,10.29,few clouds,2020-10-31 23:34:42
656,Whitehorse,CA,60.72,-135.05,10.99,78,75,12.75,light snow,2020-10-31 23:33:29
657,Pyu,MM,18.48,96.43,73.29,95,33,2.33,scattered clouds,2020-10-31 23:34:43
658,Paciran,ID,-6.88,112.38,76.53,88,100,5.57,overcast clouds,2020-10-31 23:34:43
659,Kariba,ZW,-16.52,28.8,74.71,55,0,4.41,clear sky,2020-10-31 23:34:43
660,Bognor Regis,GB,50.78,-0.68,55.99,79,100,7.0,overcast clouds,2020-10-31 23:34:43
661,Beyneu,KZ,45.32,55.2,46.11,56,93,12.82,overcast clouds,2020-10-31 23:34:43
662,La Crosse,US,43.8,-91.24,59.0,51,20,10.29,few clouds,2020-10-31 23:34:43
663,Vanavara,RU,60.34,102.28,-2.87,92,0,1.77,clear sky,2020-10-31 23:34:44
664,Ketchikan,US,55.34,-131.65,50.0,100,90,18.34,mist,2020-10-31 23:34:44
665,Plouzane,FR,48.38,-4.62,53.6,87,0,19.46,light rain,2020-10-31 23:34:44
666,Joaima,BR,-16.65,-41.03,71.51,90,100,1.19,moderate rain,2020-10-31 23:34:44
667,Takoradi,GH,4.88,-1.76,78.39,87,25,5.91,scattered clouds,2020-10-31 23:34:44
668,Dicabisagan,PH,17.08,122.42,77.86,87,100,14.65,overcast clouds,2020-10-31 23:34:45
669,Porto Walter,BR,-8.27,-72.74,72.5,81,100,2.68,overcast clouds,2020-10-31 23:34:45
670,Bubaque,GW,11.28,-15.83,83.8,71,77,9.75,broken clouds,2020-10-31 23:34:45
671,Nargana,PA,9.44,-78.59,80.15,83,93,10.22,overcast clouds,2020-10-31 23:34:45
672,Tabou,CI,4.42,-7.35,77.77,88,95,7.11,overcast clouds,2020-10-31 23:34:45
673,Saint Anthony,US,45.02,-93.22,48.2,49,90,19.46,overcast clouds,2020-10-31 23:25:11
674,Zhigansk,RU,66.77,123.37,-1.89,92,98,5.35,overcast clouds,2020-10-31 23:34:45
675,Novodugino,RU,55.63,34.28,42.57,90,75,9.78,broken clouds,2020-10-31 23:34:45
676,Cervo,ES,43.67,-7.41,68.0,81,100,8.01,overcast clouds,2020-10-31 23:34:46
677,Andenes,NO,69.31,16.12,41.0,86,67,9.17,broken clouds,2020-10-31 23:34:46
678,Innisfail,AU,-17.53,146.03,81.0,51,7,1.01,clear sky,2020-10-31 23:34:46
679,Orchard Homes,US,46.86,-114.05,48.2,57,1,4.7,clear sky,2020-10-31 23:34:46
680,Beidao,CN,34.57,105.89,44.42,57,33,0.78,scattered clouds,2020-10-31 23:34:46
681,Shanghai,CN,31.22,121.46,66.0,88,0,6.71,clear sky,2020-10-31 23:30:02
682,Manakara,MG,-22.13,48.02,63.32,83,51,4.12,broken clouds,2020-10-31 23:34:46
683,Shipunovo,RU,52.16,82.22,28.4,97,42,5.44,scattered clouds,2020-10-31 23:34:46
684,Lavrentiya,RU,65.58,-171.0,22.19,90,16,8.14,few clouds,2020-10-31 23:34:47
685,Norilsk,RU,69.35,88.2,21.2,85,75,29.08,light shower snow,2020-10-31 23:34:47
686,San Andres,CO,12.58,-81.7,82.4,83,75,9.17,broken clouds,2020-10-31 23:30:06
687,Morwell,AU,-38.23,146.4,66.0,57,8,10.0,clear sky,2020-10-31 23:34:47
688,Ibra,OM,22.69,58.53,59.13,34,0,2.42,clear sky,2020-10-31 23:34:47
689,Nhulunbuy,AU,-12.23,136.77,87.8,62,75,13.87,broken clouds,2020-10-31 23:34:47
690,Rusape,ZW,-18.53,32.13,58.89,57,0,5.39,clear sky,2020-10-31 23:34:47
691,Jardim,BR,-21.48,-56.14,70.09,84,29,4.88,scattered clouds,2020-10-31 23:33:34
692,Morondava,MG,-20.28,44.28,76.12,80,70,7.92,broken clouds,2020-10-31 23:34:48
693,Balaka,MW,-14.98,34.96,69.1,75,34,1.34,scattered clouds,2020-10-31 23:34:48
694,Merauke,ID,-8.47,140.33,84.02,60,91,11.36,overcast clouds,2020-10-31 23:34:48
695,Oksfjord,NO,70.24,22.35,37.4,92,3,16.11,clear sky,2020-10-31 23:34:48
696,Saint-Michel-Des-Saints,CA,46.68,-73.92,26.08,92,24,6.42,few clouds,2020-10-31 23:34:48
697,Aquidauana,BR,-20.47,-55.79,74.07,70,50,5.12,scattered clouds,2020-10-31 23:34:48
698,Rio Gallegos,AR,-51.62,-69.22,59.0,44,20,11.41,few clouds,2020-10-31 23:34:48
699,Ocampo,MX,21.65,-101.5,64.09,32,0,8.97,clear sky,2020-10-31 23:34:49
700,Tual,ID,-5.67,132.75,83.62,76,92,13.24,overcast clouds,2020-10-31 23:23:08
701,Langxiang,CN,46.95,128.88,35.22,82,94,14.65,overcast clouds,2020-10-31 23:34:49
702,Santa Cruz,BO,-17.8,-63.17,86.0,28,0,11.41,clear sky,2020-10-31 23:20:34
703,Curuguaty,PY,-24.47,-55.69,67.37,81,51,2.44,broken clouds,2020-10-31 23:34:49
704,Goma,CD,-1.68,29.22,62.76,80,92,3.36,light rain,2020-10-31 23:34:49
705,Hualmay,PE,-11.1,-77.61,62.02,85,63,7.54,broken clouds,2020-10-31 23:34:49
706,Honningsvag,NO,70.98,25.97,40.87,75,64,19.1,broken clouds,2020-10-31 23:34:49
707,Tres Arroyos,AR,-38.37,-60.28,56.77,59,0,8.14,clear sky,2020-10-31 23:34:50
708,Mishan,CN,45.55,131.88,47.97,66,56,14.09,broken clouds,2020-10-31 23:34:50
709,Brownwood,US,31.71,-98.99,77.0,23,1,4.7,clear sky,2020-10-31 23:34:50
710,Tuensang,IN,26.28,94.83,67.5,85,100,1.63,overcast clouds,2020-10-31 23:34:50
711,Ambon,ID,-3.7,128.18,82.0,95,72,1.01,broken clouds,2020-10-31 23:34:50
712,Luganville,VU,-15.53,167.17,84.2,70,20,9.17,few clouds,2020-10-31 23:34:50
